[
	{
		"date": "2009-01-23",
		"venue": "The Red & The Black",
		"location": {
			"locality": "Washington",
			"region": "DC"
		},
		"bands": [
			{
				"name": "Meow vs. Meow",
				"url": "http://meowvsmeow.com/"
			},
			{
				"name": "The Chance",
				"url": "https://www.facebook.com/thechancedc"
			},
			{
				"name": "Flowers on the Razor Wire",
				"url": "http://www.flowersontherazorwire.com/"
			}
		]
	},
	{
		"date": "2009-05-26",
		"venue": "DC9",
		"location": {
			"locality": "Washington",
			"region": "DC"
		},
		"url": "https://www.facebook.com/events/10153244853636085/",
		"bands": [
			{
				"name": "Bellflur",
				"url": "http://www.bellflur.com/"
			},
			{
				"name": "We Read Minds",
				"url": "https://www.facebook.com/wereadminds"
			}
		]
	},
	{
		"date": "2009-06-24",
		"venue": "Artomatic",
		"location": {
			"locality": "Washington",
			"region": "DC"
		},
		"url": "https://www.facebook.com/events/10153857711095550/"
	},
	{
		"date": "2009-09-15",
		"venue": "The Red & The Black",
		"location": {
			"locality": "Washington",
			"region": "DC"
		},
		"url": "https://www.facebook.com/events/153918795398/",
		"bands": [
			{
				"name": "The Modern Society",
				"url": "https://myspace.com/themodernsociety"
			},
			{
				"name": "Sarah Pray",
				"url": "http://www.sarahpraymusic.com/"
			}
		]
	},
	{
		"date": "2009-10-22",
		"venue": "DC9",
		"location": {
			"locality": "Washington",
			"region": "DC"
		},
		"url": "http://www.facebook.com/events/173472281755/",
		"bands": [
			{
				"name": "Lost In The Trees",
				"url": "http://www.lostinthetrees.com/"
			}
		]
	},
	{
		"date": "2009-11-17",
		"venue": "IOTA",
		"location": {
			"locality": "Arlington",
			"region": "VA"
		},
		"url": "http://www.last.fm/event/1288963",
		"bands": [
			{
				"name": "El Ten Eleven",
				"url": "http://www.elteneleven.com/"
			}
		]
	},
	{
		"date": "2010-02-25",
		"venue": "The Red & The Black",
		"location": {
			"locality": "Washington",
			"region": "DC"
		},
		"url": "https://www.facebook.com/events/302610670587/",
		"bands": [
			{
				"name": "Shadows and Ghosts",
				"url": "https://myspace.com/shadowsandghosts"
			}
		]
	},
	{
		"date": "2010-06-07",
		"venue": "Velvet Lounge",
		"location": {
			"locality": "Washington",
			"region": "DC"
		},
		"url": "http://www.facebook.com/events/129525480392349/",
		"bands": [
			{
				"name": "Fall Catalogue",
				"url": "https://myspace.com/fallcatalogue"
			}
		]
	},
	{
		"date": "2010-09-27",
		"venue": "IOTA",
		"location": {
			"locality": "Arlington",
			"region": "VA"
		},
		"url": "http://www.last.fm/event/1675042",
		"bands": [
			{
				"name": "Six Gallery",
				"url": "https://sixgallery.bandcamp.com/"
			}
		]
	},
	{
		"date": "2011-01-29",
		"venue": "Gibson's Grille",
		"location": {
			"locality": "Richmond",
			"region": "VA"
		},
		"url": "http://www.facebook.com/events/177558898946784/",
		"bands": [
			{
				"name": "Lobo Marino",
				"url": "http://www.lobomarinomusic.com/"
			},
			{
				"name": "Dave Watkins",
				"url": "http://www.davewatkinsmusic.com/"
			}
		]
	},
	{
		"date": "2011-02-03",
		"venue": "Kung Fu Necktie",
		"location": {
			"locality": "Philadelphia",
			"region": "PA"
		},
		"url": "http://www.facebook.com/events/133809370014333/",
		"bands": [
			{
				"name": "Bells Bells Bells",
				"url": "https://myspace.com/bellsbellsbells"
			},
			{
				"name": "Acres of Diamonds",
				"url": "https://acresofdiamonds.bandcamp.com/"
			}
		]
	},
	{
		"date": "2011-04-13",
		"venue": "DC9",
		"location": {
			"locality": "Washington",
			"region": "DC"
		},
		"url": "http://www.facebook.com/events/207087389317150/",
		"bands": [
			{
				"name": "Mittenfields",
				"url": "http://mittenfieldsmittenfields.com/"
			},
			{
				"name": "The Plums",
				"url": "http://www.myspace.com/plumsband"
			}
		]
	},
	{
		"date": "2011-06-26",
		"venue": "Velvet Lounge",
		"location": {
			"locality": "Washington",
			"region": "DC"
		},
		"url": "http://www.last.fm/event/1934765",
		"bands": [
			{
				"name": "The End of the Ocean",
				"url": "http://theendoftheocean.com/"
			},
			{
				"name": "Sunlight Ascending",
				"url": "https://sunlight-ascending.bandcamp.com/"
			}
		]
	},
	{
		"date": "2011-06-27",
		"venue": "Charm City Art Space",
		"location": {
			"locality": "Baltimore",
			"region": "MD"
		},
		"url": "http://www.last.fm/event/1934769",
		"bands": [
			{
				"name": "The End of the Ocean",
				"url": "http://theendoftheocean.com/"
			},
			{
				"name": "Sunlight Ascending",
				"url": "https://sunlight-ascending.bandcamp.com/"
			},
			{
				"name": "Until Sunrise",
				"url": "https://untilsunrise.bandcamp.com/"
			}
		]
	},
	{
		"date": "2011-07-27",
		"venue": "Velvet Lounge",
		"location": {
			"locality": "Washington",
			"region": "DC"
		},
		"url": "http://www.facebook.com/events/127712017317703/",
		"bands": [
			{
				"name": "Teen Mom",
				"url": "http://teenmomdc.com/"
			},
			{
				"name": "Battle House",
				"url": "http://www.batlhaus.com/"
			}
		]
	},
	{
		"date": "2011-10-28",
		"venue": "IOTA",
		"location": {
			"locality": "Arlington",
			"region": "VA"
		},
		"url": "http://www.facebook.com/events/290564657639169/",
		"bands": [
			{
				"name": "TONE",
				"url": "http://tone-dc.com/"
			},
			{
				"name": "The Ascent of Everest",
				"url": "https://www.facebook.com/theascentofeverest"
			}
		]
	},
	{
		"date": "2012-01-19",
		"venue": "Velvet Lounge",
		"location": {
			"locality": "Washington",
			"region": "DC"
		},
		"url": "http://www.facebook.com/events/250181448367754/",
		"bands": [
			{
				"name": "Zvoov",
				"url": "https://zvoov.bandcamp.com/"
			},
			{
				"name": "Degollado",
				"url": "https://degollado.bandcamp.com/"
			}
		]
	},
	{
		"date": "2012-02-24",
		"venue": "Black Cat",
		"location": {
			"locality": "Washington",
			"region": "DC"
		},
		"url": "http://www.facebook.com/events/210094305755386/",
		"bands": [
			{
				"name": "Justin Trawick Group",
				"url": "http://www.justintrawick.com/"
			},
			{
				"name": "Tauk",
				"url": "http://www.taukband.com/"
			}
		]
	},
	{
		"date": "2012-04-28",
		"venue": "Velvet Lounge",
		"location": {
			"locality": "Washington",
			"region": "DC"
		},
		"url": "http://www.facebook.com/events/286952451385114/",
		"bands": [
			{
				"name": "TONE",
				"url": "http://tone-dc.com/"
			},
			{
				"name": "The Blue Letter",
				"url": "https://www.facebook.com/theblueletter"
			}
		]
	},
	{
		"date": "2012-07-31",
		"venue": "The Red Palace",
		"location": {
			"locality": "Washington",
			"region": "DC"
		},
		"url": "http://www.facebook.com/events/426952400681295/",
		"bands": [
			{
				"name": "The End of the Ocean",
				"url": "http://theendoftheocean.com/"
			},
			{
				"name": "sansyou",
				"url": "http://sansyoumusic.com/"
			}
		]
	},
	{
		"date": "2012-10-10",
		"venue": "Velvet Lounge",
		"location": {
			"locality": "Washington",
			"region": "DC"
		},
		"url": "https://www.facebook.com/events/396734423725230/",
		"bands": [
			{
				"name": "Spikes Out",
				"url": "http://spikesout.com/"
			},
			{
				"name": "Port-Royal",
				"url": "http://www.port-royal.it/"
			}
		]
	},
	{
		"date": "2012-11-08",
		"venue": "Rock & Roll Hotel",
		"location": {
			"locality": "Washington",
			"region": "DC"
		},
		"url": "https://www.facebook.com/events/119895418158440/",
		"bands": [
			{
				"name": "Errors",
				"url": "http://www.weareerrors.com/"
			},
			{
				"name": "The Twilight Sad",
				"url": "http://www.thetwilightsad.com/"
			}
		]
	},
	{
		"date": "2015-05-16",
		"venue": "Velvet Lounge",
		"location": {
			"locality": "Washington",
			"region": "DC"
		},
		"url": "https://www.facebook.com/events/1075635229118848/",
		"bands": [
			{
				"name": "The Dealbreakers",
				"url": "https://thedealbreakersnova.bandcamp.com/"
			},
			{
				"name": "ShowPony",
				"url": "http://www.showponyband.com/"
			},
			{
				"name": "A Troop of Echoes",
				"url": "http://atroopofechoes.com/"
			}
		]
	},
	{
		"date": "2016-02-20",
		"venue": "Velvet Lounge",
		"location": {
			"locality": "Washington",
			"region": "DC"
		},
		"url": "https://www.facebook.com/events/599841410165172/",
		"bands": [
			{
				"name": "Time Columns",
				"url": "http://www.timecolumns.com/"
			},
			{
				"name": "TONE",
				"url": "http://tone-dc.com/"
			}
		]
	},
	{
		"date": "2016-06-01",
		"venue": "Velvet Lounge",
		"location": {
			"locality": "Washington",
			"region": "DC"
		},
		"url": "https://www.facebook.com/events/1720347458237118/",
		"bands": [
			{
				"name": "Fine, Fine",
				"url": "https://finefine.bandcamp.com/"
			},
			{
				"name": "Shy, Low",
				"url": "http://shylowmusic.com/"
			},
			{
				"name": "The Greatest Hoax",
				"url": "https://thegreatesthoax.bandcamp.com/"
			}
		]
	},
	{
		"date": "2016-11-12",
		"venue": "Cafe Nola",
		"location": {
			"locality": "Frederick",
			"region": "MD"
		},
		"url": "https://www.facebook.com/events/1762585477337244/",
		"bands": [
			{
				"name": "Time Columns",
				"url": "http://www.timecolumns.com/"
			}
		]
	},
	{
		"date": "2016-12-08",
		"venue": "Rock & Roll Hotel",
		"location": {
			"locality": "Washington",
			"region": "DC"
		},
		"url": "https://www.facebook.com/events/1135001993262257/",
		"bands": [
			{
				"name": "TONE",
				"url": "http://tone-dc.com/"
			},
			{
				"name": "Boat Burning",
				"url": "http://www.boatburning.com/"
			}
		]
	}
]